[
  {
    "id": 31,
    "name": "萌主屋宠物",
    "lon": "112.979954",
    "lat": "28.124843",
    "address": "湖南省长沙市天心区新姚北路166号科院佳园3号栋、5栋架11",
    "img_url": "https://ss1.bdstatic.com/70cFvXSh_Q1YnxGkpoWK1HF6hhy/it/u=3371568098,2531196429&fm=26&gp=0.jpg",
    "operator": "宠物店主",
    "contact_number": "1999999999"
  },
  {
    "id": 32,
    "name": "芒果宠物",
    "lon": "112.935249",
    "lat": "28.247731",
    "address": "长沙市岳麓区观沙岭街道佑母塘路799号钰龙天下佳园二期住宅4",
    "img_url": "https://ss1.bdstatic.com/70cFvXSh_Q1YnxGkpoWK1HF6hhy/it/u=3371568098,2531196429&fm=26&gp=0.jpg",
    "operator": "宠物店主",
    "contact_number": "1999999999"
  },
  {
    "id": 33,
    "name": "派特宠物生活馆",
    "lon": "113.032364",
    "lat": "28.208580",
    "address": "湖南省长沙市马王堆万家丽北路三段43-9号浏阳河畔家园2栋114号门面",
    "img_url": "https://ss1.bdstatic.com/70cFvXSh_Q1YnxGkpoWK1HF6hhy/it/u=3371568098,2531196429&fm=26&gp=0.jpg",
    "operator": "宠物店主",
    "contact_number": "1999999999"
  },
  {
    "id": 34,
    "name": "江南芭特宠物",
    "lon": "112.937291",
    "lat": "28.245265",
    "address": "长沙市岳麓区观沙岭街道佑母塘路799号钰龙天下佳园4栋110",
    "img_url": "https://ss1.bdstatic.com/70cFvXSh_Q1YnxGkpoWK1HF6hhy/it/u=3371568098,2531196429&fm=26&gp=0.jpg",
    "operator": "宠物店主",
    "contact_number": "1999999999"
  },
  {
    "id": 35,
    "name": "小犬当家宠物店",
    "lon": "112.982040",
    "lat": "28.188090",
    "address": "芙蓉区都正街104号",
    "img_url": "https://ss1.bdstatic.com/70cFvXSh_Q1YnxGkpoWK1HF6hhy/it/u=3371568098,2531196429&fm=26&gp=0.jpg",
    "operator": "宠物店主",
    "contact_number": "1999999999"
  },
  {
    "id": 36,
    "name": "伊伴宠物诊所",
    "lon": "112.993774",
    "lat": "28.126759",
    "address": "湖南省长沙市天心区友谊路332号青园一期2栋一114",
    "img_url": "https://ss1.bdstatic.com/70cFvXSh_Q1YnxGkpoWK1HF6hhy/it/u=3371568098,2531196429&fm=26&gp=0.jpg",
    "operator": "宠物店主",
    "contact_number": "1999999999"
  },
  {
    "id": 37,
    "name": "秀怡宠物美容学校",
    "lon": "113.012390",
    "lat": "28.213040",
    "address": "湖南省长沙市芙蓉区湘湖街道跃进湖社区三湘南湖大市场建材城仓储",
    "img_url": "https://ss1.bdstatic.com/70cFvXSh_Q1YnxGkpoWK1HF6hhy/it/u=3371568098,2531196429&fm=26&gp=0.jpg",
    "operator": "宠物店主",
    "contact_number": "1999999999"
  },
  {
    "id": 38,
    "name": "甜心宠物用品店",
    "lon": "112.982970",
    "lat": "28.133470",
    "address": "长沙市天心区新姚北路308号美域公寓12栋1层102",
    "img_url": "https://ss1.bdstatic.com/70cFvXSh_Q1YnxGkpoWK1HF6hhy/it/u=3371568098,2531196429&fm=26&gp=0.jpg",
    "operator": "宠物店主",
    "contact_number": "1999999999"
  },
  {
    "id": 40,
    "name": "伴侣宠物医院",
    "lon": "112.977220",
    "lat": "28.218560",
    "address": "湖南省长沙市开福区湘雅路街道湘江中路一段凯乐国际城6栋108",
    "img_url": "https://ss1.bdstatic.com/70cFvXSh_Q1YnxGkpoWK1HF6hhy/it/u=3371568098,2531196429&fm=26&gp=0.jpg",
    "operator": "宠物店主",
    "contact_number": "1999999999"
  },
  {
    "id": 41,
    "name": "琳郡宠物店",
    "lon": "112.952810",
    "lat": "28.162190",
    "address": "长沙市岳麓区橘子洲街道潇湘中路298号曙光泊岸一期门面街10",
    "img_url": "https://ss1.bdstatic.com/70cFvXSh_Q1YnxGkpoWK1HF6hhy/it/u=3371568098,2531196429&fm=26&gp=0.jpg",
    "operator": "宠物店主",
    "contact_number": "1999999999"
  },
  {
    "id": 42,
    "name": "皮皮宠物医院",
    "lon": "113.006280",
    "lat": "28.170520",
    "address": "湖南省长沙市雨花区左家塘街道桂花路322号凯轩云顶公寓一栋、二栋-113",
    "img_url": "https://ss1.bdstatic.com/70cFvXSh_Q1YnxGkpoWK1HF6hhy/it/u=3371568098,2531196429&fm=26&gp=0.jpg",
    "operator": "宠物店主",
    "contact_number": "1999999999"
  },
  {
    "id": 43,
    "name": "月溪宠物",
    "lon": "112.978561",
    "lat": "28.183607",
    "address": "长沙市天心区城南西路城南公寓38号",
    "img_url": "https://ss1.bdstatic.com/70cFvXSh_Q1YnxGkpoWK1HF6hhy/it/u=3371568098,2531196429&fm=26&gp=0.jpg",
    "operator": "宠物店主",
    "contact_number": "1999999999"
  },
  {
    "id": 44,
    "name": "汪星人宠物会所",
    "lon": "112.985440",
    "lat": "28.252020",
    "address": "长沙市开福区金霞开发区景香苑18栋102号门面",
    "img_url": "https://ss1.bdstatic.com/70cFvXSh_Q1YnxGkpoWK1HF6hhy/it/u=3371568098,2531196429&fm=26&gp=0.jpg",
    "operator": "宠物店主",
    "contact_number": "1999999999"
  },
  {
    "id": 45,
    "name": "糖宝宠物生活馆",
    "lon": "112.881810",
    "lat": "28.200360",
    "address": "湖南省长沙市岳麓区梅溪湖街道近湖二路58号万科梅溪郡3栋103",
    "img_url": "https://ss1.bdstatic.com/70cFvXSh_Q1YnxGkpoWK1HF6hhy/it/u=3371568098,2531196429&fm=26&gp=0.jpg",
    "operator": "宠物店主",
    "contact_number": "1999999999"
  },
  {
    "id": 46,
    "name": "琳阿姨宠物体验乐园",
    "lon": "112.947980",
    "lat": "28.230250",
    "address": "长沙市岳麓区银盆岭街道杜鹃路99号天骄福邸1、2栋109房",
    "img_url": "https://ss1.bdstatic.com/70cFvXSh_Q1YnxGkpoWK1HF6hhy/it/u=3371568098,2531196429&fm=26&gp=0.jpg",
    "operator": "宠物店主",
    "contact_number": "1999999999"
  },
  {
    "id": 47,
    "name": "爱上它宠物店",
    "lon": "113.021090",
    "lat": "28.143830",
    "address": "长沙市雨花区曲塘路英郡年华1栋107门面",
    "img_url": "https://ss1.bdstatic.com/70cFvXSh_Q1YnxGkpoWK1HF6hhy/it/u=3371568098,2531196429&fm=26&gp=0.jpg",
    "operator": "宠物店主",
    "contact_number": "1999999999"
  },
  {
    "id": 48,
    "name": "米莱宠物店",
    "lon": "112.946680",
    "lat": "28.232800",
    "address": "湖南省长沙市岳麓区观沙岭街道枫林绿洲1区C1、C3栋架04号",
    "img_url": "https://ss1.bdstatic.com/70cFvXSh_Q1YnxGkpoWK1HF6hhy/it/u=3371568098,2531196429&fm=26&gp=0.jpg",
    "operator": "宠物店主",
    "contact_number": "1999999999"
  },
  {
    "id": 49,
    "name": "玖玖宠物店（雨花店）",
    "lon": "113.022300",
    "lat": "28.179960",
    "address": "长沙市雨花区高桥街道怡园街135号尚东紫郡新寓B栋106号",
    "img_url": "https://ss1.bdstatic.com/70cFvXSh_Q1YnxGkpoWK1HF6hhy/it/u=3371568098,2531196429&fm=26&gp=0.jpg",
    "operator": "宠物店主",
    "contact_number": "1999999999"
  },
  {
    "id": 50,
    "name": "康美宠物医院",
    "lon": "112.972690",
    "lat": "28.164730",
    "address": "湖南省长沙市天心区裕南街街道火把山社区南湖公寓002栋101",
    "img_url": "https://ss1.bdstatic.com/70cFvXSh_Q1YnxGkpoWK1HF6hhy/it/u=3371568098,2531196429&fm=26&gp=0.jpg",
    "operator": "宠物店主",
    "contact_number": "1999999999"
  },
  {
    "id": 51,
    "name": "萌宠当家宠物生活馆",
    "lon": "112.924960",
    "lat": "28.160050",
    "address": "长沙市岳麓区岳麓街道洋海塘小区23栋1单元1层",
    "img_url": "https://ss1.bdstatic.com/70cFvXSh_Q1YnxGkpoWK1HF6hhy/it/u=3371568098,2531196429&fm=26&gp=0.jpg",
    "operator": "宠物店主",
    "contact_number": "1999999999"
  },
  {
    "id": 52,
    "name": "宠托邦宠物俱乐部",
    "lon": "113.046100",
    "lat": "28.242470",
    "address": "湖南省长沙市开福区洪山街道万家丽北路一段699号恒大雅苑7-9号栋122号商铺",
    "img_url": "https://ss1.bdstatic.com/70cFvXSh_Q1YnxGkpoWK1HF6hhy/it/u=3371568098,2531196429&fm=26&gp=0.jpg",
    "operator": "宠物店主",
    "contact_number": "1999999999"
  },
  {
    "id": 53,
    "name": "星诚宠物医院",
    "lon": "112.998850",
    "lat": "28.237440",
    "address": "湖南省长沙市开福区科大佳园1栋11号",
    "img_url": "https://ss1.bdstatic.com/70cFvXSh_Q1YnxGkpoWK1HF6hhy/it/u=3371568098,2531196429&fm=26&gp=0.jpg",
    "operator": "宠物店主",
    "contact_number": "1999999999"
  },
  {
    "id": 54,
    "name": "萌仔宠物医院",
    "lon": "112.930250",
    "lat": "28.240910",
    "address": "长沙市岳麓区望岳街道茶子山西路19号国泰嘉园二期F栋商业楼1单元103号",
    "img_url": "https://ss1.bdstatic.com/70cFvXSh_Q1YnxGkpoWK1HF6hhy/it/u=3371568098,2531196429&fm=26&gp=0.jpg",
    "operator": "宠物店主",
    "contact_number": "1999999999"
  },
  {
    "id": 55,
    "name": "爱摩氏宠物会所",
    "lon": "112.896657",
    "lat": "28.134893",
    "address": "湖南省长沙市岳麓区学士街道米兰春天A区商铺106-1号门面",
    "img_url": "https://ss1.bdstatic.com/70cFvXSh_Q1YnxGkpoWK1HF6hhy/it/u=3371568098,2531196429&fm=26&gp=0.jpg",
    "operator": "宠物店主",
    "contact_number": "1999999999"
  },
  {
    "id": 56,
    "name": "U+宠屋",
    "lon": "112.912052",
    "lat": "28.203302",
    "address": "长沙市岳麓区望城坡街道迎春路与西二环交汇处第15栋1层100",
    "img_url": "https://ss1.bdstatic.com/70cFvXSh_Q1YnxGkpoWK1HF6hhy/it/u=3371568098,2531196429&fm=26&gp=0.jpg",
    "operator": "宠物店主",
    "contact_number": "1999999999"
  },
  {
    "id": 57,
    "name": "小白宠物生活馆",
    "lon": "112.925860",
    "lat": "28.141670",
    "address": "湖南省长沙市岳麓区五星龙回塘小区17栋7号门面",
    "img_url": "https://ss1.bdstatic.com/70cFvXSh_Q1YnxGkpoWK1HF6hhy/it/u=3371568098,2531196429&fm=26&gp=0.jpg",
    "operator": "宠物店主",
    "contact_number": "1999999999"
  },
  {
    "id": 58,
    "name": "长沙市芙蓉区玖玖宠物店",
    "lon": "113.037338",
    "lat": "28.194541",
    "address": "长沙市芙蓉区火星街道新合村锦绣中星9栋109门面",
    "img_url": "https://ss1.bdstatic.com/70cFvXSh_Q1YnxGkpoWK1HF6hhy/it/u=3371568098,2531196429&fm=26&gp=0.jpg",
    "operator": "宠物店主",
    "contact_number": "1999999999"
  },
  {
    "id": 59,
    "name": "派多格宠物生活馆（米兰春天店）",
    "lon": "112.897610",
    "lat": "28.133630",
    "address": "湖南省长沙市岳麓区含浦米兰春天g13栋",
    "img_url": "https://ss1.bdstatic.com/70cFvXSh_Q1YnxGkpoWK1HF6hhy/it/u=3371568098,2531196429&fm=26&gp=0.jpg",
    "operator": "宠物店主",
    "contact_number": "1999999999"
  },
  {
    "id": 60,
    "name": "苏米宠物生活馆",
    "lon": "112.989330",
    "lat": "28.255390",
    "address": "长沙市开福区福元西路99号珠江花城第三组团北半地上室商铺-1层-103号",
    "img_url": "https://ss1.bdstatic.com/70cFvXSh_Q1YnxGkpoWK1HF6hhy/it/u=3371568098,2531196429&fm=26&gp=0.jpg",
    "operator": "宠物店主",
    "contact_number": "1999999999"
  },
  {
    "id": 61,
    "name": "圣宠宠物会所（梅溪湖店）",
    "lon": "112.911942",
    "lat": "28.201033",
    "address": "湖南省长沙市岳麓区望城坡街道大坝咀安置小区3期4栋7号",
    "img_url": "https://ss1.bdstatic.com/70cFvXSh_Q1YnxGkpoWK1HF6hhy/it/u=3371568098,2531196429&fm=26&gp=0.jpg",
    "operator": "宠物店主",
    "contact_number": "1999999999"
  },
  {
    "id": 62,
    "name": "Friday宠物生活馆",
    "lon": "112.958283",
    "lat": "28.234262",
    "address": "岳麓区观沙岭街道万科金域2期S4栋一层126号",
    "img_url": "https://ss1.bdstatic.com/70cFvXSh_Q1YnxGkpoWK1HF6hhy/it/u=3371568098,2531196429&fm=26&gp=0.jpg",
    "operator": "宠物店主",
    "contact_number": "1999999999"
  },
  {
    "id": 63,
    "name": "A米宠物",
    "lon": "112.972480",
    "lat": "28.164680",
    "address": "湖南省长沙市裕南街街道南湖公寓002栋102A门面",
    "img_url": "https://ss1.bdstatic.com/70cFvXSh_Q1YnxGkpoWK1HF6hhy/it/u=3371568098,2531196429&fm=26&gp=0.jpg",
    "operator": "宠物店主",
    "contact_number": "1999999999"
  },
  {
    "id": 64,
    "name": "班尼宠物生活馆",
    "lon": "113.032770",
    "lat": "28.159730",
    "address": "湖南省长沙市雨花区美林景园商业街13号",
    "img_url": "https://ss1.bdstatic.com/70cFvXSh_Q1YnxGkpoWK1HF6hhy/it/u=3371568098,2531196429&fm=26&gp=0.jpg",
    "operator": "宠物店主",
    "contact_number": "1999999999"
  },
  {
    "id": 65,
    "name": "萌心宠物店",
    "lon": "112.892650",
    "lat": "28.243520",
    "address": "长沙市岳麓区雷锋大道468号金科世界城商业21号126号商铺",
    "img_url": "https://ss1.bdstatic.com/70cFvXSh_Q1YnxGkpoWK1HF6hhy/it/u=3371568098,2531196429&fm=26&gp=0.jpg",
    "operator": "宠物店主",
    "contact_number": "1999999999"
  },
  {
    "id": 66,
    "name": "阿Q宠物旗舰店",
    "lon": "113.036820",
    "lat": "28.133450",
    "address": "长沙市雨花区玉竹路八号",
    "img_url": "https://ss1.bdstatic.com/70cFvXSh_Q1YnxGkpoWK1HF6hhy/it/u=3371568098,2531196429&fm=26&gp=0.jpg",
    "operator": "宠物店主",
    "contact_number": "1999999999"
  },
  {
    "id": 68,
    "name": "杰米猫舍",
    "lon": "112.996960",
    "lat": "28.184002",
    "address": "雨花区韶山北路汇富中心b栋1703",
    "img_url": "https://ss1.bdstatic.com/70cFvXSh_Q1YnxGkpoWK1HF6hhy/it/u=3371568098,2531196429&fm=26&gp=0.jpg",
    "operator": "宠物店主",
    "contact_number": "1999999999"
  },
  {
    "id": 70,
    "name": "小白萌宠宠物店",
    "lon": "0.000000",
    "lat": "0.000000",
    "address": "湖南省长沙市雨花区香樟路北冲尾小区16栋2号门面",
    "img_url": "https://ss1.bdstatic.com/70cFvXSh_Q1YnxGkpoWK1HF6hhy/it/u=3371568098,2531196429&fm=26&gp=0.jpg",
    "operator": "宠物店主",
    "contact_number": "1999999999"
  },
  {
    "id": 146,
    "name": "犬民时代（贺龙店）",
    "lon": "112.980579",
    "lat": "28.175640",
    "address": "芙蓉中路182号独立小木屋（摩天轮下）犬民时代！",
    "img_url": "https://ss1.bdstatic.com/70cFvXSh_Q1YnxGkpoWK1HF6hhy/it/u=3371568098,2531196429&fm=26&gp=0.jpg",
    "operator": "宠物店主",
    "contact_number": "1999999999"
  },
  {
    "id": 154,
    "name": "米奇小姐宠物（奥克斯店）",
    "lon": "112.957620",
    "lat": "28.221520",
    "address": "岳麓大道57号奥克斯中央公馆6-09",
    "img_url": "https://ss1.bdstatic.com/70cFvXSh_Q1YnxGkpoWK1HF6hhy/it/u=3371568098,2531196429&fm=26&gp=0.jpg",
    "operator": "宠物店主",
    "contact_number": "1999999999"
  },
  {
    "id": 155,
    "name": "米奇小姐宠物店（黄鹤店）",
    "lon": "112.957620",
    "lat": "28.221520",
    "address": "岳麓街道黄鹤小区2片6栋",
    "img_url": "https://ss1.bdstatic.com/70cFvXSh_Q1YnxGkpoWK1HF6hhy/it/u=3371568098,2531196429&fm=26&gp=0.jpg",
    "operator": "宠物店主",
    "contact_number": "1999999999"
  },
  {
    "id": 164,
    "name": "小宋宠物店",
    "lon": "112.976380",
    "lat": "28.165860",
    "address": "保利国际中心2806",
    "img_url": "https://ss1.bdstatic.com/70cFvXSh_Q1YnxGkpoWK1HF6hhy/it/u=3371568098,2531196429&fm=26&gp=0.jpg",
    "operator": "宠物店主",
    "contact_number": "1999999999"
  },
  {
    "id": 167,
    "name": "贵宾之家宠物生活馆（梅溪湖店）",
    "lon": "112.904810",
    "lat": "28.183760",
    "address": "中海梅溪湖壹号7栋107商铺",
    "img_url": "https://ss1.bdstatic.com/70cFvXSh_Q1YnxGkpoWK1HF6hhy/it/u=3371568098,2531196429&fm=26&gp=0.jpg",
    "operator": "宠物店主",
    "contact_number": "1999999999"
  },
  {
    "id": 171,
    "name": "仁才动物医院（河西院）",
    "lon": "112.957620",
    "lat": "28.221520",
    "address": "长沙市岳麓区银盆南路317-4号（六沟垅四水厂正对面）",
    "img_url": "https://ss1.bdstatic.com/70cFvXSh_Q1YnxGkpoWK1HF6hhy/it/u=3371568098,2531196429&fm=26&gp=0.jpg",
    "operator": "宠物店主",
    "contact_number": "1999999999"
  },
  {
    "id": 191,
    "name": "三小只宠物生活馆",
    "lon": "112.979120",
    "lat": "28.173740",
    "address": "湖南省长沙市天心区南湖路永宏佳园东门三小只宠物生活馆",
    "img_url": "https://ss1.bdstatic.com/70cFvXSh_Q1YnxGkpoWK1HF6hhy/it/u=3371568098,2531196429&fm=26&gp=0.jpg",
    "operator": "宠物店主",
    "contact_number": "1999999999"
  },
  {
    "id": 230,
    "name": "有一家周边服务店",
    "lon": "113.022860",
    "lat": "28.156140",
    "address": "保利国际广场",
    "img_url": "https://ss1.bdstatic.com/70cFvXSh_Q1YnxGkpoWK1HF6hhy/it/u=3371568098,2531196429&fm=26&gp=0.jpg",
    "operator": "宠物店主",
    "contact_number": "1999999999"
  },
  {
    "id": 237,
    "name": "十悦宠物",
    "lon": "113.007500",
    "lat": "28.224600",
    "address": "车站北路华龙公馆十悦宠物",
    "img_url": "https://ss1.bdstatic.com/70cFvXSh_Q1YnxGkpoWK1HF6hhy/it/u=3371568098,2531196429&fm=26&gp=0.jpg",
    "operator": "宠物店主",
    "contact_number": "1999999999"
  },
  {
    "id": 240,
    "name": "米乐宠物店",
    "lon": "112.930150",
    "lat": "28.278610",
    "address": "金星北路新地东方明珠40-125号门面",
    "img_url": "https://ss1.bdstatic.com/70cFvXSh_Q1YnxGkpoWK1HF6hhy/it/u=3371568098,2531196429&fm=26&gp=0.jpg",
    "operator": "宠物店主",
    "contact_number": "1999999999"
  },
  {
    "id": 245,
    "name": "奈熊妈妈宠物（锦湘国际店）",
    "lon": "113.025630",
    "lat": "28.168740",
    "address": "民主路旁锦湘国际星城1栋111奈熊妈妈",
    "img_url": "https://ss1.bdstatic.com/70cFvXSh_Q1YnxGkpoWK1HF6hhy/it/u=3371568098,2531196429&fm=26&gp=0.jpg",
    "operator": "宠物店主",
    "contact_number": "1999999999"
  },
  {
    "id": 248,
    "name": "有一个宠物门店（测试）",
    "lon": "113.022860",
    "lat": "28.156140",
    "address": "保利国际广场",
    "img_url": "https://ss1.bdstatic.com/70cFvXSh_Q1YnxGkpoWK1HF6hhy/it/u=3371568098,2531196429&fm=26&gp=0.jpg",
    "operator": "宠物店主",
    "contact_number": "1999999999"
  },
  {
    "id": 251,
    "name": "有一家宠物医院（测试）",
    "lon": "113.022860",
    "lat": "28.156140",
    "address": "保利国际广场",
    "img_url": "https://ss1.bdstatic.com/70cFvXSh_Q1YnxGkpoWK1HF6hhy/it/u=3371568098,2531196429&fm=26&gp=0.jpg",
    "operator": "宠物店主",
    "contact_number": "1999999999"
  },
  {
    "id": 272,
    "name": "星光十八家",
    "lon": "112.983320",
    "lat": "28.114230",
    "address": "保利国际广场",
    "img_url": "https://ss1.bdstatic.com/70cFvXSh_Q1YnxGkpoWK1HF6hhy/it/u=3371568098,2531196429&fm=26&gp=0.jpg",
    "operator": "宠物店主",
    "contact_number": "1999999999"
  },
  {
    "id": 293,
    "name": "宠其宠物店",
    "lon": "113.037580",
    "lat": "28.157020",
    "address": "雨花区石坝路三江花中城2期23栋105门面",
    "img_url": "https://ss1.bdstatic.com/70cFvXSh_Q1YnxGkpoWK1HF6hhy/it/u=3371568098,2531196429&fm=26&gp=0.jpg",
    "operator": "宠物店主",
    "contact_number": "1999999999"
  },
  {
    "id": 294,
    "name": "萌宠时代宠物店",
    "lon": "112.900380",
    "lat": "28.285680",
    "address": "月亮岛路街道润和紫郡商铺138号",
    "img_url": "https://ss1.bdstatic.com/70cFvXSh_Q1YnxGkpoWK1HF6hhy/it/u=3371568098,2531196429&fm=26&gp=0.jpg",
    "operator": "宠物店主",
    "contact_number": "1999999999"
  },
  {
    "id": 295,
    "name": "爱之宠宠物",
    "lon": "113.025124",
    "lat": "28.150290",
    "address": "万家丽中路二段271号城市山水豪园10栋106号店铺",
    "img_url": "https://ss1.bdstatic.com/70cFvXSh_Q1YnxGkpoWK1HF6hhy/it/u=3371568098,2531196429&fm=26&gp=0.jpg",
    "operator": "宠物店主",
    "contact_number": "1999999999"
  },
  {
    "id": 302,
    "name": "不臭宠物公馆",
    "lon": "112.976030",
    "lat": "28.177626",
    "address": "城南西路城南公寓38号一楼",
    "img_url": "https://ss1.bdstatic.com/70cFvXSh_Q1YnxGkpoWK1HF6hhy/it/u=3371568098,2531196429&fm=26&gp=0.jpg",
    "operator": "宠物店主",
    "contact_number": "1999999999"
  },
  {
    "id": 303,
    "name": "暄暄宠物",
    "lon": "112.980046",
    "lat": "28.214012",
    "address": "湘江中路一段74号。湘雅路西口往北300米，暄暄宠物",
    "img_url": "https://ss1.bdstatic.com/70cFvXSh_Q1YnxGkpoWK1HF6hhy/it/u=3371568098,2531196429&fm=26&gp=0.jpg",
    "operator": "宠物店主",
    "contact_number": "1999999999"
  },
  {
    "id": 311,
    "name": "单宝旭",
    "lon": "113.022860",
    "lat": "28.156140",
    "address": "给你",
    "img_url": "https://ss1.bdstatic.com/70cFvXSh_Q1YnxGkpoWK1HF6hhy/it/u=3371568098,2531196429&fm=26&gp=0.jpg",
    "operator": "宠物店主",
    "contact_number": "1999999999"
  },
  {
    "id": 312,
    "name": "奔跑的宠物",
    "lon": "113.001787",
    "lat": "28.174979",
    "address": "车站南路600号奔跑的宠物",
    "img_url": "https://ss1.bdstatic.com/70cFvXSh_Q1YnxGkpoWK1HF6hhy/it/u=3371568098,2531196429&fm=26&gp=0.jpg",
    "operator": "宠物店主",
    "contact_number": "1999999999"
  },
  {
    "id": 313,
    "name": "起点宠物诊所",
    "lon": "113.022860",
    "lat": "28.156140",
    "address": "雨花区朝晖路锦湘国际16栋105门面",
    "img_url": "https://ss1.bdstatic.com/70cFvXSh_Q1YnxGkpoWK1HF6hhy/it/u=3371568098,2531196429&fm=26&gp=0.jpg",
    "operator": "宠物店主",
    "contact_number": "1999999999"
  },
  {
    "id": 316,
    "name": "美艺宠物店",
    "lon": "112.953590",
    "lat": "28.231210",
    "address": "杜鹃路枫林美景12栋",
    "img_url": "https://ss1.bdstatic.com/70cFvXSh_Q1YnxGkpoWK1HF6hhy/it/u=3371568098,2531196429&fm=26&gp=0.jpg",
    "operator": "宠物店主",
    "contact_number": "1999999999"
  },
  {
    "id": 318,
    "name": "长沙市岳麓区康贝宠物医院",
    "lon": "112.948010",
    "lat": "28.242700",
    "address": "长沙市岳麓区茶子山路湘荣酒店旁边",
    "img_url": "https://ss1.bdstatic.com/70cFvXSh_Q1YnxGkpoWK1HF6hhy/it/u=3371568098,2531196429&fm=26&gp=0.jpg",
    "operator": "宠物店主",
    "contact_number": "1999999999"
  },
  {
    "id": 329,
    "name": "长沙岳麓区友宠汇",
    "lon": "112.940270",
    "lat": "28.247810",
    "address": "岳麓区观沙路268号",
    "img_url": "https://ss1.bdstatic.com/70cFvXSh_Q1YnxGkpoWK1HF6hhy/it/u=3371568098,2531196429&fm=26&gp=0.jpg",
    "operator": "宠物店主",
    "contact_number": "1999999999"
  },
  {
    "id": 378,
    "name": "琳阿姨宠物体验乐园",
    "lon": "112.953590",
    "lat": "28.231210",
    "address": "杜鹃路108号，天骄福邸北门108号商铺",
    "img_url": "https://ss1.bdstatic.com/70cFvXSh_Q1YnxGkpoWK1HF6hhy/it/u=3371568098,2531196429&fm=26&gp=0.jpg",
    "operator": "宠物店主",
    "contact_number": "1999999999"
  },
  {
    "id": 428,
    "name": "贝贝康宠物医院火炬路分院",
    "lon": "113.022332",
    "lat": "28.213351",
    "address": "火炬西路1号（加油站对面）",
    "img_url": "https://ss1.bdstatic.com/70cFvXSh_Q1YnxGkpoWK1HF6hhy/it/u=3371568098,2531196429&fm=26&gp=0.jpg",
    "operator": "宠物店主",
    "contact_number": "1999999999"
  },
  {
    "id": 430,
    "name": "贝贝康宠物医院人民路分院",
    "lon": "113.022332",
    "lat": "28.213351",
    "address": "人民中路通发大厦",
    "img_url": "https://ss1.bdstatic.com/70cFvXSh_Q1YnxGkpoWK1HF6hhy/it/u=3371568098,2531196429&fm=26&gp=0.jpg",
    "operator": "宠物店主",
    "contact_number": "1999999999"
  },
  {
    "id": 432,
    "name": "贝贝康宠物医院运达医院",
    "lon": "112.988740",
    "lat": "28.173860",
    "address": "长沙大道嘉宇盛世华章A1栋",
    "img_url": "https://ss1.bdstatic.com/70cFvXSh_Q1YnxGkpoWK1HF6hhy/it/u=3371568098,2531196429&fm=26&gp=0.jpg",
    "operator": "宠物店主",
    "contact_number": "1999999999"
  },
  {
    "id": 439,
    "name": "贝贝康宠物医院湘江路医院",
    "lon": "113.005830",
    "lat": "28.218940",
    "address": "湘江北路金泰路口（湘江世纪城赏江苑）",
    "img_url": "https://ss1.bdstatic.com/70cFvXSh_Q1YnxGkpoWK1HF6hhy/it/u=3371568098,2531196429&fm=26&gp=0.jpg",
    "operator": "宠物店主",
    "contact_number": "1999999999"
  },
  {
    "id": 441,
    "name": "贝贝康宠物医院世纪城医院",
    "lon": "113.012210",
    "lat": "28.218580",
    "address": "福元桥大桥东（湘江世纪城滨江美寓）",
    "img_url": "https://ss1.bdstatic.com/70cFvXSh_Q1YnxGkpoWK1HF6hhy/it/u=3371568098,2531196429&fm=26&gp=0.jpg",
    "operator": "宠物店主",
    "contact_number": "1999999999"
  },
  {
    "id": 442,
    "name": "贝贝康宠物医院银盆路医院",
    "lon": "112.969850",
    "lat": "28.226480",
    "address": "银盆南路162号（四水场旁）",
    "img_url": "https://ss1.bdstatic.com/70cFvXSh_Q1YnxGkpoWK1HF6hhy/it/u=3371568098,2531196429&fm=26&gp=0.jpg",
    "operator": "宠物店主",
    "contact_number": "1999999999"
  },
  {
    "id": 444,
    "name": "贝贝康宠物医院西牌楼医院",
    "lon": "112.972030",
    "lat": "28.193470",
    "address": "西牌楼街7栋5号",
    "img_url": "https://ss1.bdstatic.com/70cFvXSh_Q1YnxGkpoWK1HF6hhy/it/u=3371568098,2531196429&fm=26&gp=0.jpg",
    "operator": "宠物店主",
    "contact_number": "1999999999"
  },
  {
    "id": 445,
    "name": "贝贝康宠物医院书院路医院",
    "lon": "112.972030",
    "lat": "28.193470",
    "address": "书院路388号",
    "img_url": "https://ss1.bdstatic.com/70cFvXSh_Q1YnxGkpoWK1HF6hhy/it/u=3371568098,2531196429&fm=26&gp=0.jpg",
    "operator": "宠物店主",
    "contact_number": "1999999999"
  },
  {
    "id": 446,
    "name": "贝贝康宠物医院曙光路医院",
    "lon": "112.988740",
    "lat": "28.173860",
    "address": "曙光中路371号",
    "img_url": "https://ss1.bdstatic.com/70cFvXSh_Q1YnxGkpoWK1HF6hhy/it/u=3371568098,2531196429&fm=26&gp=0.jpg",
    "operator": "宠物店主",
    "contact_number": "1999999999"
  },
  {
    "id": 447,
    "name": "贝贝康宠物医院书院南路医院",
    "lon": "112.972030",
    "lat": "28.193470",
    "address": "书院南路186号",
    "img_url": "https://ss1.bdstatic.com/70cFvXSh_Q1YnxGkpoWK1HF6hhy/it/u=3371568098,2531196429&fm=26&gp=0.jpg",
    "operator": "宠物店主",
    "contact_number": "1999999999"
  },
  {
    "id": 448,
    "name": "贝贝康宠物医院韶山南路医院",
    "lon": "112.988740",
    "lat": "28.173860",
    "address": "香樟路2号（韶山南路与香樟路东南角）",
    "img_url": "https://ss1.bdstatic.com/70cFvXSh_Q1YnxGkpoWK1HF6hhy/it/u=3371568098,2531196429&fm=26&gp=0.jpg",
    "operator": "宠物店主",
    "contact_number": "1999999999"
  },
  {
    "id": 449,
    "name": "贝贝康宠物医院井圭路医院",
    "lon": "112.988740",
    "lat": "28.173860",
    "address": "井湾路353号",
    "img_url": "https://ss1.bdstatic.com/70cFvXSh_Q1YnxGkpoWK1HF6hhy/it/u=3371568098,2531196429&fm=26&gp=0.jpg",
    "operator": "宠物店主",
    "contact_number": "1999999999"
  },
  {
    "id": 450,
    "name": "贝贝康宠物医院新韶路医院",
    "lon": "112.972030",
    "lat": "28.193470",
    "address": "新韶东路498号（鑫远华城）",
    "img_url": "https://ss1.bdstatic.com/70cFvXSh_Q1YnxGkpoWK1HF6hhy/it/u=3371568098,2531196429&fm=26&gp=0.jpg",
    "operator": "宠物店主",
    "contact_number": "1999999999"
  },
  {
    "id": 451,
    "name": "伴它宠物",
    "lon": "112.938802",
    "lat": "28.228208",
    "address": "银盆岭街道银馨家园A区",
    "img_url": "https://ss1.bdstatic.com/70cFvXSh_Q1YnxGkpoWK1HF6hhy/it/u=3371568098,2531196429&fm=26&gp=0.jpg",
    "operator": "宠物店主",
    "contact_number": "1999999999"
  },
  {
    "id": 452,
    "name": "贝贝康宠物医院枫林路医院",
    "lon": "112.969850",
    "lat": "28.226480",
    "address": "枫林路麓景路口东北角",
    "img_url": "https://ss1.bdstatic.com/70cFvXSh_Q1YnxGkpoWK1HF6hhy/it/u=3371568098,2531196429&fm=26&gp=0.jpg",
    "operator": "宠物店主",
    "contact_number": "1999999999"
  },
  {
    "id": 453,
    "name": "贝贝康宠物医院普瑞路医院",
    "lon": "113.018517",
    "lat": "28.213379",
    "address": "普瑞路金甲冲路口（恒大名都11栋）",
    "img_url": "https://ss1.bdstatic.com/70cFvXSh_Q1YnxGkpoWK1HF6hhy/it/u=3371568098,2531196429&fm=26&gp=0.jpg",
    "operator": "宠物店主",
    "contact_number": "1999999999"
  },
  {
    "id": 454,
    "name": "汪酱宠物幼稚园",
    "lon": "112.953590",
    "lat": "28.231210",
    "address": "八方小区二期C区C29栋112（含光路与岳华路交汇口）",
    "img_url": "https://ss1.bdstatic.com/70cFvXSh_Q1YnxGkpoWK1HF6hhy/it/u=3371568098,2531196429&fm=26&gp=0.jpg",
    "operator": "宠物店主",
    "contact_number": "1999999999"
  },
  {
    "id": 455,
    "name": "爱玩动物宠物店",
    "lon": "112.953590",
    "lat": "28.231210",
    "address": "滨江新城恒大御景湾南门116号门面",
    "img_url": "https://ss1.bdstatic.com/70cFvXSh_Q1YnxGkpoWK1HF6hhy/it/u=3371568098,2531196429&fm=26&gp=0.jpg",
    "operator": "宠物店主",
    "contact_number": "1999999999"
  },
  {
    "id": 457,
    "name": "江南宠物医院(长沙店)",
    "lon": "112.979710",
    "lat": "28.203800",
    "address": "通泰街109-32号",
    "img_url": "https://ss1.bdstatic.com/70cFvXSh_Q1YnxGkpoWK1HF6hhy/it/u=3371568098,2531196429&fm=26&gp=0.jpg",
    "operator": "宠物店主",
    "contact_number": "1999999999"
  },
  {
    "id": 477,
    "name": "柠萌宠物",
    "lon": "112.987450",
    "lat": "28.246600",
    "address": "万科城2期13栋s3-105门面",
    "img_url": "https://ss1.bdstatic.com/70cFvXSh_Q1YnxGkpoWK1HF6hhy/it/u=3371568098,2531196429&fm=26&gp=0.jpg",
    "operator": "宠物店主",
    "contact_number": "1999999999"
  },
  {
    "id": 515,
    "name": "文宠宠物医疗中心",
    "lon": "112.933020",
    "lat": "28.216730",
    "address": "咸嘉湖西路中央美郡",
    "img_url": "https://ss1.bdstatic.com/70cFvXSh_Q1YnxGkpoWK1HF6hhy/it/u=3371568098,2531196429&fm=26&gp=0.jpg",
    "operator": "宠物店主",
    "contact_number": "1999999999"
  },
  {
    "id": 526,
    "name": "测试医院",
    "lon": "112.989770",
    "lat": "28.114150",
    "address": "青园长沙市天心区政府(湘府中路北)",
    "img_url": "https://ss1.bdstatic.com/70cFvXSh_Q1YnxGkpoWK1HF6hhy/it/u=3371568098,2531196429&fm=26&gp=0.jpg",
    "operator": "宠物店主",
    "contact_number": "1999999999"
  }
]